categoria,centroide_lat,centroide_lon,fuente,id,nombre,nombre_completo,provincia_id,provincia_interseccion,provincia_nombre
Partido,-37.9646160000000,-60.2482820000000,IGN,6014,Adolfo Gonzales Chaves,Partido de Adolfo Gonzales Chaves,6,0.0125820000000000,Buenos Aires
Departamento,-31.2902980000000,-58.2378700000000,IGN,30015,Concordia,Departamento Concordia,30,0.0414680000000000,Entre Ríos
Departamento,-30.9924270000000,-58.8918600000000,IGN,30035,Federal,Departamento Federal,30,0.0657430000000000,Entre Ríos
Departamento,-33.0223490000000,-58.7858050000000,IGN,30056,Gualeguaychú,Departamento Gualeguaychú,30,0.0970760000000000,Entre Ríos
Departamento,-33.6249960000000,-58.9338960000000,IGN,30063,Islas del Ibicuy,Departamento Islas del Ibicuy,30,0.0641370000000000,Entre Ríos
Departamento,-32.7839420000000,-60.2180700000000,IGN,30105,Victoria,Departamento Victoria,30,0.08535100000000,Entre Ríos
Departamento,-32.228041000000,-60.5239340000000,IGN,30021,Diamante,Departamento Diamante,30,0.03422400000000,Entre Ríos
Departamento,-32.4477600000000,-58.5842250000000,IGN,30098,Uruguay,Departamento Uruguay,30,0.0656690000000000,Entre Ríos
Departamento,-31.6952290000000,-60.0411740000000,IGN,30084,Paraná,Departamento Paraná,30,0.0648980000000000,Entre Ríos
Partido,-35.676806000000,-59.7026610000000,IGN,6707,Saladillo,Partido de Saladillo,6,0.0087270000000000,Buenos Aires
Partido,-36.015827000000,-59.1764610000000,IGN,6455,Las Flores,Partido de Las Flores,6,0.0108190000000000,Buenos Aires
Partido,-34.1928170000000,-60.7880230000000,IGN,6686,Rojas,Partido de Rojas,6,0.00652700000000000,Buenos Aires
Partido,-34.3286830000000,-58.7711790000000,IGN,6252,Escobar,Partido de Escobar,6,0.000955000000000000,Buenos Aires
Partido,-34.511853000000,-58.7776350000000,IGN,6412,José C. Paz,Partido de José C. Paz,6,0.000160000000000000,Buenos Aires
Partido,-38.5841890000000,-62.1694170000000,IGN,6056,Bahía Blanca,Partido de Bahía Blanca,6,0.0076290000000,Buenos Aires
Partido,-34.2207580000000,-59.5194430000000,IGN,6735,San Antonio de Areco,Partido de San Antonio de Areco,6,0.00273100000000000,Buenos Aires
Partido,-36.886933000000,-57.5861190000000,IGN,6511,Maipú,Partido de Maipú,6,0.00852600000000000,Buenos Aires
Partido,-38.2026280000000,-58.0718050000000,IGN,6280,General Alvarado,Partido de General Alvarado,6,0.00542300000000000,Buenos Aires
Partido,-37.9656830000000,-57.743028000000,IGN,6357,General Pueyrredón,Partido de General Pueyrredón,6,0.00485600000000000,Buenos Aires
Partido,-37.4986410000000,-57.6432660000000,IGN,6518,Mar Chiquita,Partido de Mar Chiquita,6,0.0101930000000000,Buenos Aires
Partido,-37.3670720000000,-57.0633980000000,IGN,6868,Villa Gesell,Partido de Villa Gesell,6,0.000542000000000000,Buenos Aires
Partido,-37.1110740000000,-56.8702830000000,IGN,6644,Pinamar,Partido de Pinamar,6,0.0002160000000000,Buenos Aires
Partido,-36.650750000000,-56.9410030000000,IGN,6336,General Lavalle,Partido de General Lavalle,6,0.00882800000000000,Buenos Aires
Partido,-36.6971680000000,-56.7159400000000,IGN,6420,La Costa,Partido de La Costa,6,0.000764000000000000,Buenos Aires
Partido,-35.1851030000000,-57.6861280000000,IGN,6505,Magdalena,Partido de Magdalena,6,0.00592900000000000,Buenos Aires
Departamento,-29.9995030000000,-58.7949970000000,IGN,18175,Sauce,Departamento Sauce,18,0.0282990000000000,Corrientes
Partido,-34.52653100000,-58.5044870000000,IGN,6861,Vicente López,Partido de Vicente López,6,0.000110000000000000,Buenos Aires
Departamento,-25.4471790000000,-65.5805830000000,IGN,66098,La Viña,Departamento La Viña,66,0.0130170000000000,Salta
Partido,-36.5721940000000,-58.9441410000000,IGN,6672,Rauch,Partido de Rauch,6,0.0140640000000000,Buenos Aires
Departamento,-25.4252110000000,-64.5880710000000,IGN,66112,Metán,Departamento Metán,66,0.0341710000000000,Salta
Departamento,-25.5643170000000,-66.4548730000000,IGN,66119,Molinos,Departamento Molinos,66,0.0241550000000000,Salta
Departamento,-27.2556540000000,-60.6799750000000,IGN,22112,O'Higgins,Departamento O'Higgins,22,0.0158190000000000,Chaco
Partido,-34.6106810000000,-58.8108990000000,IGN,6560,Moreno,Partido de Moreno,6,0.000593000000000000,Buenos Aires
Partido,-34.7703480000000,-58.6254460000000,IGN,6427,La Matanza,Partido de La Matanza,6,0.00104400000000000,Buenos Aires
Partido,-37.3364290000000,-59.1819830000000,IGN,6791,Tandil,Partido de Tandil,6,0.0159890000000000,Buenos Aires
Partido,-37.534856000000,-61.8890920000000,IGN,6203,Coronel Suárez,Partido de Coronel Suárez,6,0.0197590000000000,Buenos Aires
Departamento,-30.1676450000000,-65.9564980000000,IGN,46035,Chamical,Departamento Chamical,46,0.0605490000000000,La Rioja
Departamento,-43.0705970000000,-71.4554650000000,IGN,26035,Futaleufú,Departamento Futaleufú,26,0.0403240000000000,Chubut
Departamento,-48.2873290000000,-71.113837000000,IGN,78049,Río Chico,Departamento Río Chico,78,0.137476000000000,Santa Cruz
Departamento,-40.9526640000000,-65.3712440000000,IGN,62077,San Antonio,Departamento San Antonio,62,0.0714590000000000,Río Negro
Departamento,-26.5210420000000,-62.7280140000000,IGN,86014,Alberdi,Departamento Alberdi,86,0.0930590000000000,Santiago del Estero
Departamento,-28.0394930000000,-62.5443750000000,IGN,86098,Juan Felipe Ibarra,Departamento Juan Felipe Ibarra,86,0.0676590000000000,Santiago del Estero
Departamento,-28.5683250000000,-62.3387630000000,IGN,86077,General Taboada,Departamento General Taboada,86,0.0445280000000000,Santiago del Estero
Partido,-36.6717780000000,-63.0479740000000,IGN,6721,Salliqueló,Partido de Salliqueló,6,0.00260000000000000,Buenos Aires
Partido,-34.8182450000000,-58.155462000000,IGN,6091,Berazategui,Partido de Berazategui,6,0.000703000000000000,Buenos Aires
Departamento,-24.7646020000000,-64.9560620000000,IGN,66049,General Güemes,Departamento General Güemes,66,0.0141690000000000,Salta
Departamento,-25.8295040000000,-66.1746710000000,IGN,66154,San Carlos,Departamento San Carlos,66,0.0360650000000000,Salta
Partido,-35.466183000000,-58.389652000000,IGN,6343,General Paz,Partido de General Paz,6,0.00385900000000000,Buenos Aires
Partido,-36.6660350000000,-57.9957370000000,IGN,6308,General Guido,Partido de General Guido,6,0.00759500000000000,Buenos Aires
Partido,-37.1535160000000,-57.2306610000000,IGN,6315,General Juan Madariaga,Partido de General Juan Madariaga,6,0.00979800000000000,Buenos Aires
Departamento,-49.8364880000000,-72.06547100000,IGN,78028,Lago Argentino,Departamento Lago Argentino,78,0.161095000000000,Santa Cruz
Departamento,-30.0205070000000,-62.280260000000,IGN,86154,Rivadavia,Departamento Rivadavia,86,0.0250910000000000,Santiago del Estero
Departamento,-29.3043770000000,-64.0144970000000,IGN,86126,Ojo de Agua,Departamento Ojo de Agua,86,0.0473620000000000,Santiago del Estero
Departamento,-28.7541680000000,-64.7638920000000,IGN,86063,Choya,Departamento Choya,86,0.0456730000000000,Santiago del Estero
Departamento,-35.3684510000000,-65.809487000000,IGN,74042,Gobernador Dupuy,Departamento Gobernador Dupuy,74,0.248865000000000,San Luis
Departamento,-25.038756000000,-66.2026200000000,IGN,66014,Cachi,Departamento Cachi,66,0.0184270000000000,Salta
Departamento,-25.1514410000000,-65.6063330000000,IGN,66042,Chicoana,Departamento Chicoana,66,0.0068250000000000,Salta
Departamento,-43.2725140000000,-66.1720710000000,IGN,26042,Gaiman,Departamento Gaiman,26,0.0513510000000000,Chubut
Departamento,-43.1373290000000,-65.0757170000000,IGN,26077,Rawson,Departamento Rawson,26,0.0182370000000000,Chubut
Departamento,-28.7904390000000,-68.6975440000000,IGN,46077,General Lamadrid,Departamento General Lamadrid,46,0.06647500000000,La Rioja
Departamento,-32.1657220000000,-66.5423620000000,IGN,74007,Ayacucho,Departamento Ayacucho,74,0.106278000000000,San Luis
Departamento,-27.3333760000000,-61.4758070000000,IGN,22036,12 de Octubre,Departamento 12 de Octubre,22,0.0279260000000000,Chaco
Departamento,-30.2195170000000,-63.8287890000000,IGN,14175,Tulumba,Departamento Tulumba,14,0.057892000000000,Córdoba
Departamento,-30.6567580000000,-65.0782070000000,IGN,14028,Cruz del Eje,Departamento Cruz del Eje,14,0.0408160000000000,Córdoba
Departamento,-31.2187580000000,-64.5858720000000,IGN,14091,Punilla,Departamento Punilla,14,0.0148950000000000,Córdoba
Comuna,-34.6168430000000,-58.4435680000000,IGN,2042,Comuna 6,Comuna 6,2,0.0333180000000000,Ciudad Autónoma de Buenos Aires
Departamento,-33.6169990000000,-67.9638560000000,IGN,50112,Santa Rosa,Departamento Santa Rosa,50,0.0586180000000000,Mendoza
Departamento,-25.212577000000,-61.3344270000000,IGN,22063,General Güemes,Departamento General Güemes,22,0.255729000000000,Chaco
Departamento,-31.0067610000000,-66.0589850000000,IGN,46084,General Ortiz de Ocampo,Departamento General Ortiz de Ocampo,46,0.0414400000000000,La Rioja
Departamento,-34.6231280000000,-64.3730220000000,IGN,14035,General Roca,Departamento General Roca,14,0.0792850000000000,Córdoba
Departamento,-25.1053770000000,-58.6616280000000,IGN,34042,Pilagás,Departamento Pilagás,34,0.0454730000000000,Formosa
Departamento,-26.4675820000000,-58.5654630000000,IGN,34021,Laishi,Departamento Laishi,34,0.0481300000000000,Formosa
Departamento,-33.4170770000000,-68.6049730000000,IGN,50084,Rivadavia,Departamento Rivadavia,50,0.0139380000000000,Mendoza
Partido,-38.2576420000000,-62.2905660000000,IGN,6819,Tornquist,Partido de Tornquist,6,0.0138640000000000,Buenos Aires
Departamento,-33.7012850000000,-67.2497240000000,IGN,50042,La Paz,Departamento La Paz,50,0.0499950000000000,Mendoza
Partido,-38.1479170000000,-61.2644170000000,IGN,6196,Coronel Pringles,Partido de Coronel Pringles,6,0.0175000000000000,Buenos Aires
Departamento,-40.1487160000000,-64.3049130000000,IGN,62028,Conesa,Departamento Conesa,62,0.0482210000000000,Río Negro
Partido,-39.1285650000000,-62.7245990000000,IGN,6875,Villarino,Partido de Villarino,6,0.0352930000000000,Buenos Aires
Departamento,-25.7672910000000,-59.1592560000000,IGN,34056,Pirané,Departamento Pirané,34,0.11512900000000,Formosa
Partido,-34.6696210000000,-62.0398540000000,IGN,6351,General Pinto,Partido de General Pinto,6,0.00811800000000000,Buenos Aires
Partido,-38.3890730000000,-59.5863260000000,IGN,6742,San Cayetano,Partido de San Cayetano,6,0.0100110000000000,Buenos Aires
Partido,-38.5118140000000,-60.2374170000000,IGN,6833,Tres Arroyos,Partido de Tres Arroyos,6,0.0198290000000000,Buenos Aires
Partido,-38.6708180000000,-61.0955510000000,IGN,6189,Coronel Dorrego,Partido de Coronel Dorrego,6,0.0195960000000000,Buenos Aires
Partido,-38.2554110000000,-59.1673870000000,IGN,6581,Necochea,Partido de Necochea,6,0.0152230000000000,Buenos Aires
Departamento,-30.1144560000000,-67.3355100000000,IGN,46105,Independencia,Departamento Independencia,46,0.0771610000000000,La Rioja
Partido,-35.6186880000000,-57.9039810000000,IGN,6218,Chascomús,Partido de Chascomús,6,0.0101800000000000,Buenos Aires
Partido,-35.4260560000000,-57.3992340000000,IGN,6655,Punta Indio,Partido de Punta Indio,6,0.00516100000000000,Buenos Aires
Departamento,-24.4475370000000,-65.1012860000000,IGN,38014,El Carmen,Departamento El Carmen,38,0.0172170000000000,Jujuy
Departamento,-31.7097120000000,-64.3059020000000,IGN,14147,Santa María,Departamento Santa María,14,0.0196550000000000,Córdoba
Departamento,-40.9744580000000,-66.3108910000000,IGN,62084,Valcheta,Departamento Valcheta,62,0.105373000000000,Río Negro
Departamento,-28.5330440000000,-66.7191030000000,IGN,46007,Arauco,Departamento Arauco,46,0.0273200000000000,La Rioja
Partido,-35.8492080000000,-57.8948440000000,IGN,6466,Lezama,Partido de Lezama,6,0.00338500000000000,Buenos Aires
Partido,-34.1383890000000,-58.8829570000000,IGN,6126,Campana,Partido de Campana,6,0.00312200000000000,Buenos Aires
Departamento,-48.8383420000000,-68.4681620000000,IGN,78042,Magallanes,Departamento Magallanes,78,0.0831420000000000,Santa Cruz
Departamento,-49.9474840000000,-69.4469510000000,IGN,78007,Corpen Aike,Departamento Corpen Aike,78,0.10981700000000,Santa Cruz
Departamento,-31.0350310000000,-65.4119720000000,IGN,14070,Minas,Departamento Minas,14,0.0214270000000000,Córdoba
Departamento,-31.7080280000000,-65.1565150000000,IGN,14126,San Alberto,Departamento San Alberto,14,0.0204840000000000,Córdoba
Departamento,-31.7331090000000,-63.4748560000000,IGN,14119,Río Segundo,Departamento Río Segundo,14,0.0311410000000000,Córdoba
Departamento,-31.242567000000,-62.5275890000000,IGN,14140,San Justo,Departamento San Justo,14,0.0934950000000000,Córdoba
Departamento,-32.8783820000000,-62.7915970000000,IGN,14182,Unión,Departamento Unión,14,0.0666390000000000,Córdoba
Departamento,-32.2876800000000,-63.77900500000,IGN,14161,Tercero Arriba,Departamento Tercero Arriba,14,0.0312460000000000,Córdoba
Departamento,-24.9885440000000,-65.4038160000000,IGN,66035,Cerrillos,Departamento Cerrillos,66,0.00349700000000000,Salta
Departamento,-33.330534000000,-64.4931340000000,IGN,14098,Río Cuarto,Departamento Río Cuarto,14,0.114106000000000,Córdoba
Departamento,-33.2934010000000,-69.2962860000000,IGN,50126,Tupungato,Departamento Tupungato,50,0.0162120000000000,Mendoza
Departamento,-40.9255510000000,-67.4574920000000,IGN,62049,9 de Julio,Departamento 9 de Julio,62,0.119905000000000,Río Negro
Departamento,-41.7398230000000,-70.4011460000000,IGN,62056,Ñorquinco,Departamento Ñorquinco,62,0.0415810000000000,Río Negro
Departamento,-34.9454490000000,-68.384240000000,IGN,50105,San Rafael,Departamento San Rafael,50,0.211140000000000,Mendoza
Departamento,-24.8754560000000,-63.8397260000000,IGN,66007,Anta,Departamento Anta,66,0.145436000000000,Salta
Departamento,-39.4039650000000,-69.427191000000,IGN,58098,Picún Leufú,Departamento Picún Leufú,58,0.0492050000000000,Neuquén
Departamento,-38.9221770000000,-69.8223680000000,IGN,58112,Zapala,Departamento Zapala,58,0.0554900000000000,Neuquén
Departamento,-41.1330450000000,-68.9063260000000,IGN,62091,25 de Mayo,Departamento 25 de Mayo,62,0.138159000000000,Río Negro
Departamento,-42.4388520000000,-67.176877000000,IGN,26105,Telsen,Departamento Telsen,26,0.0847840000000000,Chubut
Departamento,-40.8875520000000,-70.4627110000000,IGN,62070,Pilcaniyeu,Departamento Pilcaniyeu,62,0.0546960000000000,Río Negro
Partido,-37.196762000000,-63.0560550000000,IGN,6007,Adolfo Alsina,Partido de Adolfo Alsina,6,0.0193340000000000,Buenos Aires
Departamento,-35.2188460000000,-67.0805880000000,IGN,50014,General Alvear,Departamento General Alvear,50,0.0994850000000000,Mendoza
Departamento,-24.5624000000000,-65.4290990000000,IGN,66077,La Caldera,Departamento La Caldera,66,0.00704100000000000,Salta
Departamento,-26.7997130000000,-59.5191060000000,IGN,22154,Sargento Cabral,Departamento Sargento Cabral,22,0.0166060000000000,Chaco
Partido,-36.2711920000000,-63.2257520000000,IGN,6616,Pellegrini,Partido de Pellegrini,6,0.00591500000000000,Buenos Aires
Departamento,-39.1314860000000,-71.0463180000000,IGN,58007,Aluminé,Departamento Aluminé,58,0.0505560000000000,Neuquén
Departamento,-22.8153450000000,-64.9205140000000,IGN,66070,Iruya,Departamento Iruya,66,0.0224750000000000,Salta
Departamento,-40.314223000000,-71.1842640000000,IGN,58056,Lácar,Departamento Lácar,58,0.0539400000000000,Neuquén
Departamento,-28.3343380000000,-65.731188000000,IGN,10063,Fray Mamerto Esquiú,Departamento Fray Mamerto Esquiú,10,0.00184500000000000,Catamarca
Departamento,-28.6000680000000,-65.7079320000000,IGN,10112,Valle Viejo,Departamento Valle Viejo,10,0.00603900000000000,Catamarca
Departamento,-27.3822990000000,-58.5174740000000,IGN,18133,San Cosme,Departamento San Cosme,18,0.00656300000000000,Corrientes
Departamento,-45.3450930000000,-69.0028400000000,IGN,26091,Sarmiento,Departamento Sarmiento,26,0.0665700000000000,Chubut
Comuna,-34.6064440000000,-58.3715120000000,IGN,2007,Comuna 1,Comuna 1,2,0.0871020000000000,Ciudad Autónoma de Buenos Aires
Comuna,-34.6421130000000,-58.3875610000000,IGN,2028,Comuna 4,Comuna 4,2,0.110184000000000,Ciudad Autónoma de Buenos Aires
Departamento,-39.7003600000000,-68.4827900000000,IGN,62035,El Cuy,Departamento El Cuy,62,0.105338000000000,Río Negro
Departamento,-32.5246240000000,-69.2679110000000,IGN,50049,Las Heras,Departamento Las Heras,50,0.0581330000000000,Mendoza
Departamento,-27.6596300000000,-59.827840000000,IGN,22161,Tapenagá,Departamento Tapenagá,22,0.0606630000000000,Chaco
Departamento,-32.5754680000000,-67.8966910000000,IGN,50056,Lavalle,Departamento Lavalle,50,0.0661760000000000,Mendoza
Departamento,-36.1589400000000,-69.3130810000000,IGN,50077,Malargüe,Departamento Malargüe,50,0.277197000000000,Mendoza
Departamento,-34.1404890000000,-63.4188650000000,IGN,14084,Presidente Roque Sáenz Peña,Departamento Presidente Roque Sáenz Peña,14,0.0511820000000000,Córdoba
Departamento,-39.4807940000000,-70.4335590000000,IGN,58021,Catán Lil,Departamento Catán Lil,58,0.0589850000000000,Neuquén
Departamento,-27.0446250000000,-59.7745640000000,IGN,22119,Presidencia de la Plaza,Departamento Presidencia de la Plaza,22,0.0226360000000000,Chaco
Comuna,-34.6173700000000,-58.4205720000000,IGN,2035,Comuna 5,Comuna 5,2,0.0323920000000000,Ciudad Autónoma de Buenos Aires
Departamento,-29.985327000000,-59.2413820000000,IGN,18049,Esquina,Departamento Esquina,18,0.0445710000000000,Corrientes
Departamento,-54.7704680000000,-66.6836200000000,IGN,94015,Ushuaia,Departamento Ushuaia,94,0.00189500000000000,"Tierra del Fuego, Antártida e Islas del Atlántico Sur"
Departamento,-25.9467560000000,-67.6778800000000,IGN,10028,Antofagasta de la Sierra,Departamento Antofagasta de la Sierra,10,0.274022000000000,Catamarca
Partido,-34.8421500000000,-57.9791090000000,IGN,6245,Ensenada,Partido de Ensenada,6,0.000362000000000000,Buenos Aires
Departamento,-26.8332210000000,-65.2170210000000,IGN,90084,Capital,Departamento Capital,90,0.00403200000000000,Tucumán
Departamento,-32.6104360000000,-61.7047360000000,IGN,82007,Belgrano,Departamento Belgrano,82,0.0187400000000000,Santa Fe
Partido,-33.8360670000000,-60.5447830000000,IGN,6623,Pergamino,Partido de Pergamino,6,0.00948000000000000,Buenos Aires
Partido,-38.0760760000000,-63.0574330000000,IGN,6651,Puán,Partido de Puán,6,0.0212080000000000,Buenos Aires
Partido,-34.7702610000000,-62.9541990000000,IGN,6392,General Villegas,Partido de General Villegas,6,0.0230640000000000,Buenos Aires
Comuna,-34.5662280000000,-58.4904280000000,IGN,2084,Comuna 12,Comuna 12,2,0.0759370000000000,Ciudad Autónoma de Buenos Aires
Departamento,-28.672536000000,-59.5266960000000,IGN,82049,General Obligado,Departamento General Obligado,82,0.0815310000000000,Santa Fe
Departamento,-28.9706350000000,-60.4136680000000,IGN,82133,Vera,Departamento Vera,82,0.152751000000000,Santa Fe
Departamento,-28.8486780000000,-61.3979950000000,IGN,82077,9 de Julio,Departamento 9 de Julio,82,0.127512000000000,Santa Fe
Departamento,-40.7916890000000,-63.7651000000000,IGN,62007,Adolfo Alsina,Departamento Adolfo Alsina,62,0.0445240000000000,Río Negro
Departamento,-26.6663190000000,-60.1729740000000,IGN,22133,Quitilipi,Departamento Quitilipi,22,0.015666000000000,Chaco
Departamento,-51.4134130000000,-70.5618160000000,IGN,78021,Güer Aike,Departamento Güer Aike,78,0.145191000000000,Santa Cruz
Departamento,-28.9094980000000,-65.9017190000000,IGN,10042,Capayán,Departamento Capayán,10,0.0432960000000000,Catamarca
Departamento,-26.5305480000000,-64.8195980000000,IGN,90007,Burruyacú,Departamento Burruyacú,90,0.160147000000000,Tucumán
Departamento,-32.1537710000000,-61.0481270000000,IGN,82105,San Jerónimo,Departamento San Jerónimo,82,0.0337710000000000,Santa Fe
Departamento,-26.735179000000,-60.7563740000000,IGN,22070,Independencia,Departamento Independencia,22,0.0193350000000000,Chaco
Departamento,-29.6954670000000,-58.3248600000000,IGN,18035,Curuzú Cuatiá,Departamento Curuzú Cuatiá,18,0.0941120000000000,Corrientes
Departamento,-33.0384950000000,-69.4516850000000,IGN,50063,Luján de Cuyo,Departamento Luján de Cuyo,50,0.0317410000000000,Mendoza
Departamento,-27.5418360000000,-67.9307420000000,IGN,10105,Tinogasta,Departamento Tinogasta,10,0.223133000000000,Catamarca
Comuna,-34.636554000000,-58.4518870000000,IGN,2049,Comuna 7,Comuna 7,2,0.0604300000000000,Ciudad Autónoma de Buenos Aires
Departamento,-37.9792320000000,-63.9544860000000,IGN,42077,Hucal,Departamento Hucal,42,0.0424520000000000,La Pampa
Departamento,-27.3460560000000,-58.0713820000000,IGN,18077,Itatí,Departamento Itatí,18,0.00964900000000000,Corrientes
Comuna,-34.6278520000000,-58.5028180000000,IGN,2070,Comuna 10,Comuna 10,2,0.0614580000000000,Ciudad Autónoma de Buenos Aires
Departamento,-38.6756400000000,-63.8968190000000,IGN,42014,Caleu Caleu,Departamento Caleu Caleu,42,0.0649220000000000,La Pampa
Departamento,-38.2616350000000,-65.0966890000000,IGN,42084,Lihuel Calel,Departamento Lihuel Calel,42,0.0884290000000000,La Pampa
Departamento,-38.1797330000000,-66.330067000000,IGN,42042,Curacó,Departamento Curacó,42,0.0956600000000000,La Pampa
Departamento,-38.8322790000000,-68.7940770000000,IGN,58035,Confluencia,Departamento Confluencia,58,0.0764840000000000,Neuquén
Departamento,-38.5742770000000,-70.3729610000000,IGN,58105,Picunches,Departamento Picunches,58,0.0639770000000000,Neuquén
Departamento,-38.0983760000000,-69.0157150000000,IGN,58014,Añelo,Departamento Añelo,58,0.126937000000000,Neuquén
Departamento,-38.0659450000000,-70.3142330000000,IGN,58063,Loncopué,Departamento Loncopué,58,0.0578520000000000,Neuquén
Departamento,-37.6381190000000,-70.6780420000000,IGN,58084,Ñorquín,Departamento Ñorquín,58,0.0580030000000000,Neuquén
Departamento,-37.3984090000000,-69.4030430000000,IGN,58091,Pehuenches,Departamento Pehuenches,58,0.0868040000000000,Neuquén
Comuna,-34.6061370000000,-58.4967420000000,IGN,2077,Comuna 11,Comuna 11,2,0.0684140000000000,Ciudad Autónoma de Buenos Aires
Departamento,-26.6579080000000,-54.5631770000000,IGN,54084,Montecarlo,Departamento Montecarlo,54,0.0588600000000000,Misiones
Departamento,-26.3138450000000,-54.4407360000000,IGN,54042,Eldorado,Departamento Eldorado,54,0.0573560000000000,Misiones
Departamento,-26.62996100000,-53.9629780000000,IGN,54112,San Pedro,Departamento San Pedro,54,0.13614700000000,Misiones
Departamento,-82.7776770000000,-50.6480310000000,IGN,94028,Antártida Argentina,Departamento Antártida Argentina,94,0.991220000000000,"Tierra del Fuego, Antártida e Islas del Atlántico Sur"
Departamento,-36.8585580000000,-70.78364800000,IGN,58077,Minas,Departamento Minas,58,0.0626480000000000,Neuquén
Departamento,-36.8805640000000,-70.2863790000000,IGN,58042,Chos Malal,Departamento Chos Malal,58,0.0474110000000000,Neuquén
Departamento,-42.3663970000000,-70.7119980000000,IGN,26014,Cushamen,Departamento Cushamen,26,0.0709890000000000,Chubut
Departamento,-46.8342040000000,-70.6314000000000,IGN,78035,Lago Buenos Aires,Departamento Lago Buenos Aires,78,0.112370000000000,Santa Cruz
Departamento,-39.4076050000000,-64.4007360000000,IGN,62063,Pichi Mahuida,Departamento Pichi Mahuida,62,0.0763800000000000,Río Negro
Departamento,-28.1877610000000,-63.854115000000,IGN,86175,San Martín,Departamento San Martín,86,0.0131340000000000,Santiago del Estero
Departamento,-22.290645000000,-65.5667390000000,IGN,38112,Yavi,Departamento Yavi,38,0.0560370000000000,Jujuy
Departamento,-22.1376410000000,-66.227261000000,IGN,38077,Santa Catalina,Departamento Santa Catalina,38,0.054695000000000,Jujuy
Departamento,-24.2985080000000,-64.8109900000000,IGN,38063,San Pedro,Departamento San Pedro,38,0.0387440000000000,Jujuy
Departamento,-23.4666140000000,-65.0120190000000,IGN,38105,Valle Grande,Departamento Valle Grande,38,0.0227910000000000,Jujuy
Departamento,-24.8750080000000,-59.9584280000000,IGN,34035,Patiño,Departamento Patiño,34,0.347224000000000,Formosa
Departamento,-24.0254990000000,-61.2828610000000,IGN,34007,Bermejo,Departamento Bermejo,34,0.182567000000000,Formosa
Departamento,-23.5206710000000,-66.6617120000000,IGN,38084,Susques,Departamento Susques,38,0.191882000000000,Jujuy
Departamento,-23.8544870000000,-62.0770650000000,IGN,34028,Matacos,Departamento Matacos,34,0.0532980000000000,Formosa
Departamento,-24.6426250000000,-67.3440960000000,IGN,66105,Los Andes,Departamento Los Andes,66,0.162032000000000,Salta
Departamento,-23.4987920000000,-64.150946000000,IGN,66126,Orán,Departamento Orán,66,0.0744680000000000,Salta
Departamento,-23.5604020000000,-65.3200110000000,IGN,38094,Tilcara,Departamento Tilcara,38,0.0398920000000000,Jujuy
Departamento,-24.1949230000000,-65.1264500000000,IGN,38042,Palpalá,Departamento Palpalá,38,0.00922100000000000,Jujuy
Departamento,-36.4785080000000,-65.533064000000,IGN,42098,Loventué,Departamento Loventué,42,0.0632270000000000,La Pampa
Departamento,-45.3405590000000,-70.6400850000000,IGN,26084,Río Senguer,Departamento Río Senguer,26,0.104669000000000,Chubut
Departamento,-41.4981380000000,-71.5310860000000,IGN,62021,Bariloche,Departamento Bariloche,62,0.0272520000000000,Río Negro
Departamento,-39.7946780000000,-71.2590030000000,IGN,58049,Huiliches,Departamento Huiliches,58,0.0433610000000000,Neuquén
Departamento,-37.2419020000000,-66.5552330000000,IGN,42091,Limay Mahuida,Departamento Limay Mahuida,42,0.0700020000000000,La Pampa
Departamento,-37.4345220000000,-67.6045330000000,IGN,42112,Puelén,Departamento Puelén,42,0.0917970000000000,La Pampa
Departamento,-36.395700000000,-66.5727420000000,IGN,42049,Chalileo,Departamento Chalileo,42,0.060842000000000,La Pampa
Departamento,-36.3969740000000,-67.6944670000000,IGN,42063,Chical Co,Departamento Chical Co,42,0.0623430000000000,La Pampa
Departamento,-29.3883230000000,-63.3484160000000,IGN,86140,Quebrachos,Departamento Quebrachos,86,0.0297170000000000,Santiago del Estero
Departamento,-30.2289610000000,-57.870302000000,IGN,18112,Monte Caseros,Departamento Monte Caseros,18,0.0307760000000000,Corrientes
Departamento,-27.7429620000000,-60.6567130000000,IGN,22098,Mayor Luis J. Fontana,Departamento Mayor Luis J. Fontana,22,0.0375860000000000,Chaco
Departamento,-27.8647080000000,-61.3012290000000,IGN,22043,Fray Justo Santa María de Oro,Departamento Fray Justo Santa María de Oro,22,0.0225440000000000,Chaco
Departamento,-30.5778080000000,-65.9324740000000,IGN,46063,General Belgrano,Departamento General Belgrano,46,0.031064000000000,La Rioja
Departamento,-31.3153380000000,-61.1094810000000,IGN,82070,Las Colonias,Departamento Las Colonias,82,0.0475450000000000,Santa Fe
Departamento,-30.5304250000000,-60.4886940000000,IGN,82112,San Justo,Departamento San Justo,82,0.0420060000000000,Santa Fe
Departamento,-30.2283900000000,-61.3599370000000,IGN,82091,San Cristóbal,Departamento San Cristóbal,82,0.10942400000000,Santa Fe
Departamento,-30.1041460000000,-59.8980700000000,IGN,82098,San Javier,Departamento San Javier,82,0.049894000000000,Santa Fe
Departamento,-35.2298940000000,-63.6603750000000,IGN,42056,Chapaleufú,Departamento Chapaleufú,42,0.0170090000000000,La Pampa
Departamento,-35.2306620000000,-64.2098500000000,IGN,42133,Realicó,Departamento Realicó,42,0.0166340000000000,La Pampa
Departamento,-35.6796160000000,-63.6624900000000,IGN,42105,Maracó,Departamento Maracó,42,0.0171830000000000,La Pampa
Departamento,-35.631875000000,-64.2143770000000,IGN,42147,Trenel,Departamento Trenel,42,0.0137270000000000,La Pampa
Departamento,-25.9391610000000,-62.7310970000000,IGN,86056,Copo,Departamento Copo,86,0.0937770000000000,Santiago del Estero
Departamento,-36.4980630000000,-64.198128000000,IGN,42021,Capital,Departamento Capital,42,0.0175770000000000,La Pampa
Departamento,-24.007640000000,-64.4023120000000,IGN,38070,Santa Bárbara,Departamento Santa Bárbara,38,0.0829080000000000,Jujuy
Departamento,-25.7452120000000,-61.9589810000000,IGN,22007,Almirante Brown,Departamento Almirante Brown,22,0.176483000000000,Chaco
Departamento,-25.8715610000000,-64.7288090000000,IGN,66140,Rosario de la Frontera,Departamento Rosario de la Frontera,66,0.0353760000000000,Salta
Departamento,-40.0529190000000,-70.2813670000000,IGN,58028,Collón Curá,Departamento Collón Curá,58,0.0623310000000000,Neuquén
Comuna,-34.6138430000000,-58.4026510000000,IGN,2021,Comuna 3,Comuna 3,2,0.0310550000000000,Ciudad Autónoma de Buenos Aires
Partido,-34.1558360000000,-58.5345820000000,IGN,6749,San Fernando,Partido de San Fernando,6,0.00341600000000000,Buenos Aires
Partido,-34.382020000000,-58.5881740000000,IGN,6805,Tigre,Partido de Tigre,6,0.00137300000000000,Buenos Aires
Departamento,-26.7734650000000,-66.2612710000000,IGN,10091,Santa María,Departamento Santa María,10,0.0538400000000000,Catamarca
Departamento,-28.082108000000,-65.3350820000000,IGN,10098,Santa Rosa,Departamento Santa Rosa,10,0.0158070000000000,Catamarca
Departamento,-29.3955040000000,-65.1920340000000,IGN,10070,La Paz,Departamento La Paz,10,0.0831710000000000,Catamarca
Departamento,-27.4855420000000,-64.7601170000000,IGN,86147,Río Hondo,Departamento Río Hondo,86,0.0148990000000000,Santiago del Estero
Departamento,-28.3166980000000,-68.5252930000000,IGN,46098,Vinchina,Departamento Vinchina,46,0.12311000000000,La Rioja
Departamento,-29.4605900000000,-66.3526000000000,IGN,46014,Capital,Departamento Capital,46,0.146560000000000,La Rioja
Departamento,-30.0450410000000,-63.1990190000000,IGN,14112,Río Seco,Departamento Río Seco,14,0.0401780000000000,Córdoba
Departamento,-39.4102630000000,-66.20639700000,IGN,62014,Avellaneda,Departamento Avellaneda,62,0.096723000000000,Río Negro
Departamento,-38.5298950000000,-67.5574040000000,IGN,62042,General Roca,Departamento General Roca,62,0.0703900000000000,Río Negro
Departamento,-32.7356110000000,-66.7150530000000,IGN,74014,Belgrano,Departamento Belgrano,74,0.106029000000000,San Luis
Departamento,-40.7743500000000,-71.4867230000000,IGN,58070,Los Lagos,Departamento Los Lagos,58,0.0460170000000000,Neuquén
Departamento,-28.4117890000000,-65.8367260000000,IGN,10049,Capital,Departamento Capital,10,0.0039880000000000,Catamarca
Departamento,-28.9274130000000,-65.504299000000,IGN,10014,Ancasti,Departamento Ancasti,10,0.0196300000000000,Catamarca
Departamento,-28.2337590000000,-66.3888050000000,IGN,10084,Pomán,Departamento Pomán,10,0.0495300000000000,Catamarca
Comuna,-34.5857890000000,-58.3949040000000,IGN,2014,Comuna 2,Comuna 2,2,0.0307400000000000,Ciudad Autónoma de Buenos Aires
Departamento,-26.9436380000000,-61.264613000000,IGN,22105,9 de Julio,Departamento 9 de Julio,22,0.0218050000000000,Chaco
Departamento,-31.4627420000000,-65.4351550000000,IGN,14077,Pocho,Departamento Pocho,14,0.0184810000000000,Córdoba
Partido,-34.8760970000000,-58.5647010000000,IGN,6270,Ezeiza,Partido de Ezeiza,6,0.000761000000000000,Buenos Aires
Departamento,-27.5728460000000,-66.3731020000000,IGN,10021,Andalgalá,Departamento Andalgalá,10,0.0535980000000000,Catamarca
Departamento,-28.0199740000000,-65.9227880000000,IGN,10007,Ambato,Departamento Ambato,10,0.0180730000000000,Catamarca
Comuna,-34.6745660000000,-58.461948000000,IGN,2056,Comuna 8,Comuna 8,2,0.108859000000000,Ciudad Autónoma de Buenos Aires
Departamento,-27.9768510000000,-64.8712240000000,IGN,86084,Guasayán,Departamento Guasayán,86,0.0194740000000000,Santiago del Estero
Departamento,-28.1103170000000,-65.6743180000000,IGN,10077,Paclín,Departamento Paclín,10,0.00980700000000000,Catamarca
Departamento,-28.4317060000000,-65.3604290000000,IGN,10056,El Alto,Departamento El Alto,10,0.019115000000000,Catamarca
Departamento,-29.7643090000000,-64.1425180000000,IGN,14154,Sobremonte,Departamento Sobremonte,14,0.0192090000000000,Córdoba
Departamento,-53.7462920000000,-68.1361050000000,IGN,94008,Río Grande,Departamento Río Grande,94,0.00158000000000000,"Tierra del Fuego, Antártida e Islas del Atlántico Sur"
Comuna,-34.5541260000000,-58.4540030000000,IGN,2091,Comuna 13,Comuna 13,2,0.0728410000000000,Ciudad Autónoma de Buenos Aires
Departamento,-27.4347070000000,-64.2098660000000,IGN,86035,Banda,Departamento Banda,86,0.0251820000000000,Santiago del Estero
Departamento,-44.0301840000000,-68.6858630000000,IGN,26070,Paso de Indios,Departamento Paso de Indios,26,0.0994480000000000,Chubut
Departamento,-31.4167570000000,-64.1835840000000,IGN,14014,Capital,Departamento Capital,14,0.00347000000000000,Córdoba
Departamento,-43.8138480000000,-67.2399810000000,IGN,26063,Mártires,Departamento Mártires,26,0.0697300000000000,Chubut
Departamento,-28.1061150000000,-63.4461750000000,IGN,86182,Sarmiento,Departamento Sarmiento,86,0.0123260000000000,Santiago del Estero
Departamento,-47.3305630000000,-68.0290550000000,IGN,78014,Deseado,Departamento Deseado,78,0.250909000000000,Santa Cruz
Departamento,-43.3234920000000,-70.3484080000000,IGN,26056,Languiñeo,Departamento Languiñeo,26,0.0654160000000000,Chubut
Departamento,-29.0815050000000,-62.2182800000000,IGN,86042,Belgrano,Departamento Belgrano,86,0.0246950000000000,Santiago del Estero
Departamento,-29.2979730000000,-62.5150970000000,IGN,86007,Aguirre,Departamento Aguirre,86,0.0303580000000000,Santiago del Estero
Departamento,-26.3190100000000,-60.4546440000000,IGN,22091,Maipú,Departamento Maipú,22,0.0291960000000000,Chaco
Departamento,-34.0755250000000,-69.0973090000000,IGN,50091,San Carlos,Departamento San Carlos,50,0.077035000000000,Mendoza
Departamento,-33.6228880000000,-69.5092970000000,IGN,50119,Tunuyán,Departamento Tunuyán,50,0.022412000000000,Mendoza
Departamento,-27.8539440000000,-63.9075090000000,IGN,86161,Robles,Departamento Robles,86,0.0098980000000000,Santiago del Estero
Departamento,-28.6244800000000,-64.3107270000000,IGN,86105,Loreto,Departamento Loreto,86,0.0229260000000000,Santiago del Estero
Departamento,-36.581670000000,-63.6648690000000,IGN,42028,Catriló,Departamento Catriló,42,0.0173710000000000,La Pampa
Departamento,-27.8847650000000,-64.435668000000,IGN,86049,Capital,Departamento Capital,86,0.0155200000000000,Santiago del Estero
Comuna,-34.573875000000,-58.4222940000000,IGN,2098,Comuna 14,Comuna 14,2,0.0770530000000000,Ciudad Autónoma de Buenos Aires
Departamento,-32.0114830000000,-58.3699130000000,IGN,30008,Colón,Departamento Colón,30,0.0351980000000000,Entre Ríos
Departamento,-31.6477390000000,-59.0594710000000,IGN,30113,Villaguay,Departamento Villaguay,30,0.0835420000000000,Entre Ríos
Partido,-36.0414900000000,-57.6574250000000,IGN,6168,Castelli,Partido de Castelli,6,0.00684400000000000,Buenos Aires
Departamento,-31.576884000000,-58.4863730000000,IGN,30088,San Salvador,Departamento San Salvador,30,0.0168880000000000,Entre Ríos
Departamento,-27.1019560000000,-66.9224810000000,IGN,10035,Belén,Departamento Belén,10,0.125107000000000,Catamarca
Partido,-34.8356190000000,-58.36737300000,IGN,6028,Almirante Brown,Partido de Almirante Brown,6,0.000413000000000000,Buenos Aires
Departamento,-32.2187120000000,-59.7697020000000,IGN,30077,Nogoyá,Departamento Nogoyá,30,0.0559460000000000,Entre Ríos
Departamento,-32.3174120000000,-59.2672860000000,IGN,30091,Tala,Departamento Tala,30,0.0338090000000000,Entre Ríos
Departamento,-33.1192370000000,-59.6014600000000,IGN,30049,Gualeguay,Departamento Gualeguay,30,0.0851840000000000,Entre Ríos
Departamento,-30.7348530000000,-58.1591550000000,IGN,30028,Federación,Departamento Federación,30,0.0474490000000000,Entre Ríos
Departamento,-30.8973570000000,-59.5004310000000,IGN,30070,La Paz,Departamento La Paz,30,0.0836400000000000,Entre Ríos
Departamento,-30.4139000000000,-58.7288910000000,IGN,30042,Feliciano,Departamento Feliciano,30,0.0397780000000000,Entre Ríos
Partido,-34.9298480000000,-58.3980840000000,IGN,6648,Presidente Perón,Partido de Presidente Perón,6,0.000390000000000000,Buenos Aires
Partido,-34.5464750000000,-61.0052500000000,IGN,6413,Junín,Partido de Junín,6,0.0071720000000000,Buenos Aires
Partido,-35.2225200000000,-58.1752340000000,IGN,6119,Brandsen,Partido de Brandsen,6,0.00357300000000000,Buenos Aires
Partido,-34.915487000000,-59.9584190000000,IGN,6224,Chivilcoy,Partido de Chivilcoy,6,0.00657800000000000,Buenos Aires
Partido,-35.0369690000000,-60.2819770000000,IGN,6021,Alberti,Partido de Alberti,6,0.00359200000000000,Buenos Aires
Partido,-35.0614120000000,-60.6040470000000,IGN,6112,Bragado,Partido de Bragado,6,0.00703600000000000,Buenos Aires
Partido,-34.9094240000000,-58.9954470000000,IGN,6329,General Las Heras,Partido de General Las Heras,6,0.00240000000000000,Buenos Aires
Partido,-35.7499220000000,-61.3743780000000,IGN,6147,Carlos Casares,Partido de Carlos Casares,6,0.00817100000000000,Buenos Aires
Partido,-34.8140030000000,-58.8478310000000,IGN,6525,Marcos Paz,Partido de Marcos Paz,6,0.00134700000000000,Buenos Aires
Partido,-34.9977790000000,-61.0496570000000,IGN,6385,General Viamonte,Partido de General Viamonte,6,0.00684400000000000,Buenos Aires
Partido,-35.3797450000000,-62.4297900000000,IGN,6154,Carlos Tejedor,Partido de Carlos Tejedor,6,0.0125700000000000,Buenos Aires
Partido,-35.527209000000,-60.2302840000000,IGN,6854,25 de Mayo,Partido de 25 de Mayo,6,0.0154150000000000,Buenos Aires
Partido,-35.4812270000000,-60.975425000000,IGN,6588,9 de Julio,Partido de 9 de Julio,6,0.0138030000000000,Buenos Aires
Partido,-35.8836210000000,-61.9281260000000,IGN,6609,Pehuajó,Partido de Pehuajó,6,0.0146230000000000,Buenos Aires
Partido,-36.3471440000000,-60.1310650000000,IGN,6798,Tapalqué,Partido de Tapalqué,6,0.0135550000000000,Buenos Aires
Partido,-36.0567660000000,-62.6350800000000,IGN,6826,Trenque Lauquen,Partido de Trenque Lauquen,6,0.0178140000000000,Buenos Aires
Partido,-35.8346620000000,-58.6980800000000,IGN,6301,General Belgrano,Partido de General Belgrano,6,0.00600100000000000,Buenos Aires
Partido,-35.5098270000000,-58.7672360000000,IGN,6547,Monte,Partido de Monte,6,0.00603600000000000,Buenos Aires
Partido,-35.481636000000,-59.3575120000000,IGN,6693,Roque Pérez,Partido de Roque Pérez,6,0.00500600000000000,Buenos Aires
Partido,-36.8576340000000,-60.6702050000000,IGN,6595,Olavarría,Partido de Olavarría,6,0.0250910000000000,Buenos Aires
Partido,-34.7110030000000,-58.7419580000000,IGN,6539,Merlo,Partido de Merlo,6,0.000555000000000000,Buenos Aires
Departamento,-27.1478370000000,-54.8023440000000,IGN,54014,Cainguás,Departamento Cainguás,54,0.051902000000000,Misiones
Departamento,-52.5006630000000,-53.4026400000000,IGN,94021,Islas del Atlántico Sur,Departamento Islas del Atlántico Sur,94,0.00373100000000000,"Tierra del Fuego, Antártida e Islas del Atlántico Sur"
Partido,-34.8312140000000,-58.4769480000000,IGN,6260,Esteban Echeverría,Partido de Esteban Echeverría,6,0.000387000000000000,Buenos Aires
Partido,-34.0118120000000,-60.0626640000000,IGN,6077,Arrecifes,Partido de Arrecifes,6,0.00393200000000000,Buenos Aires
Partido,-34.1498450000000,-59.8540150000000,IGN,6140,Capitán Sarmiento,Partido de Capitán Sarmiento,6,0.00173800000000000,Buenos Aires
Departamento,-24.0891180000000,-65.4478780000000,IGN,38021,Dr. Manuel Belgrano,Departamento Dr. Manuel Belgrano,38,0.0391640000000000,Jujuy
Partido,-34.4067980000000,-59.8844130000000,IGN,6161,Carmen de Areco,Partido de Carmen de Areco,6,0.00337100000000000,Buenos Aires
Partido,-34.2710780000000,-60.3052880000000,IGN,6714,Salto,Partido de Salto,6,0.00510800000000000,Buenos Aires
Partido,-34.2951340000000,-59.1559460000000,IGN,6266,Exaltación de la Cruz,Partido de Exaltación de la Cruz,6,0.00201900000000000,Buenos Aires
Partido,-34.5521340000000,-58.6917840000000,IGN,6760,San Miguel,Partido de San Miguel,6,0.000263000000000000,Buenos Aires
Partido,-34.4377310000000,-59.4731990000000,IGN,6728,San Andrés de Giles,Partido de San Andrés de Giles,6,0.00358700000000000,Buenos Aires
Partido,-34.6973210000000,-59.4204810000000,IGN,6532,Mercedes,Partido de Mercedes,6,0.00334400000000000,Buenos Aires
Partido,-34.4481640000000,-58.9033330000000,IGN,6638,Pilar,Partido de Pilar,6,0.00122200000000000,Buenos Aires
Partido,-34.5673220000000,-59.1584560000000,IGN,6497,Luján,Partido de Luján,6,0.00245400000000000,Buenos Aires
Departamento,-26.9759690000000,-65.4789080000000,IGN,90028,Famaillá,Departamento Famaillá,90,0.0203680000000000,Tucumán
Partido,-34.5992830000000,-58.6495250000000,IGN,6408,Hurlingham,Partido de Hurlingham,6,0.000114000000000000,Buenos Aires
Partido,-34.6493860000000,-58.6198320000000,IGN,6568,Morón,Partido de Morón,6,0.000175000000000000,Buenos Aires
Partido,-34.6182000000000,-60.3543080000000,IGN,6210,Chacabuco,Partido de Chacabuco,6,0.00729100000000000,Buenos Aires
Departamento,-33.1503940000000,-68.4973610000000,IGN,50035,Junín,Departamento Junín,50,0.0017960000000000,Mendoza
Partido,-34.4873110000000,-58.7121370000000,IGN,6515,Malvinas Argentinas,Partido de Malvinas Argentinas,6,0.000200000000000000,Buenos Aires
Partido,-36.4971000000000,-62.8639080000000,IGN,6847,Tres Lomas,Partido de Tres Lomas,6,0.00407900000000000,Buenos Aires
Partido,-37.0354310000000,-58.4425570000000,IGN,6042,Ayacucho,Partido de Ayacucho,6,0.0221630000000000,Buenos Aires
Partido,-36.8906760000000,-62.4185310000000,IGN,6399,Guaminí,Partido de Guaminí,6,0.0157960000000000,Buenos Aires
Partido,-34.5527720000000,-58.5642820000000,IGN,6371,General San Martín,Partido General San Martín,6,0.000180000000000000,Buenos Aires
Partido,-35.0704480000000,-61.6824580000000,IGN,6469,Lincoln,Partido de Lincoln,6,0.0184960000000000,Buenos Aires
Partido,-37.5165060000000,-60.7681480000000,IGN,6448,Laprida,Partido de Laprida,6,0.0113820000000000,Buenos Aires
Partido,-34.4868930000000,-58.5372090000000,IGN,6756,San Isidro,Partido de San Isidro,6,0.000167000000000000,Buenos Aires
Partido,-37.586111000000,-59.8883980000000,IGN,6084,Benito Juárez,Partido de Benito Juárez,6,0.0176310000000000,Buenos Aires
Partido,-33.885865000000,-61.0624840000000,IGN,6175,Colón,Partido de Colón,6,0.0031440000000000,Buenos Aires
Partido,-34.6360720000000,-58.6887600000000,IGN,6410,Ituzaingó,Partido de Ituzaingó,6,0.000121000000000000,Buenos Aires
Partido,-34.6506160000000,-58.9878470000000,IGN,6364,General Rodríguez,Partido de General Rodríguez,6,0.00116700000000000,Buenos Aires
Partido,-34.7485740000000,-59.7033860000000,IGN,6784,Suipacha,Partido de Suipacha,6,0.00300700000000000,Buenos Aires
Partido,-34.5960100000000,-58.5791880000000,IGN,6840,Tres de Febrero,Partido de Tres de Febrero,6,0.000144000000000000,Buenos Aires
Departamento,-29.4499050000000,-68.3285570000000,IGN,46028,General Felipe Varela,Departamento General Felipe Varela,46,0.0903020000000000,La Rioja
Partido,-34.8777450000000,-58.2585550000000,IGN,6274,Florencio Varela,Partido de Florencio Varela,6,0.000605000000000000,Buenos Aires
Partido,-35.0304840000000,-59.4293590000000,IGN,6574,Navarro,Partido de Navarro,6,0.00518100000000000,Buenos Aires
Partido,-35.1448040000000,-58.6910940000000,IGN,6134,Cañuelas,Partido de Cañuelas,6,0.00380000000000000,Buenos Aires
Departamento,-27.2982010000000,-62.4639030000000,IGN,86119,Moreno,Departamento Moreno,86,0.119259000000000,Santiago del Estero
Departamento,-27.1153500000000,-61.3088350000000,IGN,22028,Chacabuco,Departamento Chacabuco,22,0.0152950000000000,Chaco
Partido,-35.0715090000000,-58.4318120000000,IGN,6778,San Vicente,Partido de San Vicente,6,0.00211500000000000,Buenos Aires
Partido,-35.2195860000000,-59.1457420000000,IGN,6483,Lobos,Partido de Lobos,6,0.00553300000000000,Buenos Aires
Partido,-36.0347110000000,-60.1331530000000,IGN,6287,General Alvear,Partido de General Alvear,6,0.0109040000000000,Buenos Aires
Partido,-34.7349710000000,-58.2768580000000,IGN,6658,Quilmes,Partido de Quilmes,6,0.000292000000000000,Buenos Aires
Partido,-36.2029840000000,-58.3404430000000,IGN,6630,Pila,Partido de Pila,6,0.0111960000000000,Buenos Aires
Partido,-37.3561280000000,-61.3441310000000,IGN,6322,General La Madrid,Partido de General La Madrid,6,0.0158580000000000,Buenos Aires
Partido,-36.2989480000000,-61.1498600000000,IGN,6105,Bolívar,Partido de Bolívar,6,0.016036000000000,Buenos Aires
Departamento,-28.8599830000000,-66.918585000000,IGN,46021,Castro Barros,Departamento Castro Barros,46,0.0165780000000000,La Rioja
Partido,-37.7146200000000,-58.2717480000000,IGN,6063,Balcarce,Partido de Balcarce,6,0.0136350000000000,Buenos Aires
Partido,-36.2591890000000,-61.660188000000,IGN,6406,Hipólito Yrigoyen,Partido de Hipólito Yrigoyen,6,0.00534400000000000,Buenos Aires
Departamento,-32.8828960000000,-68.893649000000,IGN,50007,Capital,Departamento Capital,50,0.000354000000000000,Mendoza
Partido,-36.3989380000000,-57.6319260000000,IGN,6238,Dolores,Partido de Dolores,6,0.00643500000000000,Buenos Aires
Partido,-36.7859350000000,-59.696478000000,IGN,6049,Azul,Partido de Azul,6,0.0213780000000000,Buenos Aires
Partido,-36.6408690000000,-61.8912500000000,IGN,6231,Daireaux,Partido de Daireaux,6,0.0124770000000000,Buenos Aires
Departamento,-32.9320740000000,-68.9141360000000,IGN,50021,Godoy Cruz,Departamento Godoy Cruz,50,0.000692000000000000,Mendoza
Departamento,-26.1257490000000,-65.8767230000000,IGN,66021,Cafayate,Departamento Cafayate,66,0.010128000000000,Salta
Departamento,-27.3218570000000,-63.579632000000,IGN,86070,Figueroa,Departamento Figueroa,86,0.0517210000000000,Santiago del Estero
Partido,-37.7706380000000,-62.4343830000000,IGN,6700,Saavedra,Partido de Saavedra,6,0.0117460000000000,Buenos Aires
Partido,-38.9616240000000,-61.2921470000000,IGN,6553,Monte Hermoso,Partido de Monte Hermoso,6,0.000674000000000000,Buenos Aires
Partido,-38.090053000000,-58.6935500000000,IGN,6476,Lobería,Partido de Lobería,6,0.0157020000000000,Buenos Aires
Partido,-34.9093550000000,-57.8283800000000,IGN,6098,Berisso,Partido de Berisso,6,0.000462000000000000,Buenos Aires
Partido,-36.3905150000000,-57.2738120000000,IGN,6812,Tordillo,Partido de Tordillo,6,0.00434200000000000,Buenos Aires
Partido,-33.9970900000000,-59.1282150000000,IGN,6882,Zárate,Partido de Zárate,6,0.00374600000000000,Buenos Aires
Partido,-33.5871860000000,-60.0575060000000,IGN,6665,Ramallo,Partido de Ramallo,6,0.0032940000000000,Buenos Aires
Partido,-33.4829870000000,-60.2931490000000,IGN,6763,San Nicolás,Partido de San Nicolás,6,0.00213900000000000,Buenos Aires
Departamento,-28.9187440000000,-63.3035950000000,IGN,86168,Salavina,Departamento Salavina,86,0.0233930000000000,Santiago del Estero
Departamento,-26.2199020000000,-64.0917500000000,IGN,86133,Pellegrini,Departamento Pellegrini,86,0.0499650000000000,Santiago del Estero
Departamento,-28.555363000000,-63.20376700000,IGN,86028,Avellaneda,Departamento Avellaneda,86,0.0280160000000000,Santiago del Estero
Departamento,-27.6198550000000,-61.3289520000000,IGN,22039,2 de Abril,Departamento 2 de Abril,22,0.0161700000000000,Chaco
Departamento,-32.8929750000000,-68.7333030000000,IGN,50028,Guaymallén,Departamento Guaymallén,50,0.00106700000000000,Mendoza
Departamento,-33.3295740000000,-63.6063860000000,IGN,14056,Juárez Celman,Departamento Juárez Celman,14,0.0487660000000000,Córdoba
Departamento,-24.8897950000000,-65.2713220000000,IGN,66028,Capital,Departamento Capital,66,0.0110940000000000,Salta
Departamento,-28.1888490000000,-64.2732680000000,IGN,86189,Silípica,Departamento Silípica,86,0.00901500000000000,Santiago del Estero
Departamento,-26.0848730000000,-65.1760220000000,IGN,66084,La Candelaria,Departamento La Candelaria,66,0.00879600000000000,Salta
Departamento,-35.408324000000,-64.7962060000000,IGN,42126,Rancul,Departamento Rancul,42,0.0338480000000000,La Pampa
Departamento,-32.9797500000000,-68.6563130000000,IGN,50070,Maipú,Departamento Maipú,50,0.00410000000000000,Mendoza
Departamento,-25.7029580000000,-65.4445410000000,IGN,66063,Guachipas,Departamento Guachipas,66,0.0181540000000000,Salta
Departamento,-37.0324940000000,-63.7788850000000,IGN,42007,Atreucó,Departamento Atreucó,42,0.0244440000000000,La Pampa
Departamento,-32.9140380000000,-68.2888460000000,IGN,50098,San Martín,Departamento San Martín,50,0.00990900000000000,Mendoza
Departamento,-37.4836470000000,-63.7813080000000,IGN,42070,Guatraché,Departamento Guatraché,42,0.0245830000000000,La Pampa
Departamento,-29.1585270000000,-67.0658840000000,IGN,46126,Sanagasta,Departamento Sanagasta,46,0.01419200000000,La Rioja
Departamento,-36.0320040000000,-64.5086490000000,IGN,42035,Conhelo,Departamento Conhelo,42,0.0351860000000000,La Pampa
Departamento,-26.8931450000000,-54.9233630000000,IGN,54077,Libertador General San Martín,Departamento Libertador General San Martín,54,0.048902000000000,Misiones
Departamento,-31.4229830000000,-66.6741640000000,IGN,46112,Rosario Vera Peñaloza,Departamento Rosario Vera Peñaloza,46,0.0552980000000000,La Rioja
Departamento,-27.8758600000000,-57.4100420000000,IGN,18154,San Miguel,Departamento San Miguel,18,0.0340640000000000,Corrientes
Departamento,-30.8006380000000,-66.8678570000000,IGN,46070,General Juan Facundo Quiroga,Departamento General Juan Facundo Quiroga,46,0.0476220000000000,La Rioja
Departamento,-30.3128980000000,-66.6630520000000,IGN,46056,Ángel Vicente Peñaloza,Departamento Ángel Vicente Peñaloza,46,0.0344120000000000,La Rioja
Departamento,-27.8961130000000,-58.665840000000,IGN,18042,Empedrado,Departamento Empedrado,18,0.021840000000000,Corrientes
Departamento,-29.39593700000,-67.427887000000,IGN,46042,Chilecito,Departamento Chilecito,46,0.0571830000000000,La Rioja
Departamento,-36.662162000000,-64.6922110000000,IGN,42140,Toay,Departamento Toay,42,0.0353190000000000,La Pampa
Departamento,-31.1461810000000,-64.149087000000,IGN,14021,Colón,Departamento Colón,14,0.0142270000000000,Córdoba
Departamento,-27.9113090000000,-56.790098000000,IGN,18084,Ituzaingó,Departamento Ituzaingó,18,0.107689000000000,Corrientes
Departamento,-28.6973540000000,-67.5592540000000,IGN,46049,Famatina,Departamento Famatina,46,0.0451770000000000,La Rioja
Departamento,-33.9221900000000,-61.939680000000,IGN,82042,General López,Departamento General López,82,0.0898930000000000,Santa Fe
Departamento,-33.4871400000000,-60.8374000000000,IGN,82028,Constitución,Departamento Constitución,82,0.024355000000000,Santa Fe
Departamento,-33.2249740000000,-61.5428620000000,IGN,82014,Caseros,Departamento Caseros,82,0.0268130000000000,Santa Fe
Departamento,-33.1178470000000,-60.7232420000000,IGN,82084,Rosario,Departamento Rosario,82,0.0152680000000000,Santa Fe
Departamento,-32.9413330000000,-60.9640080000000,IGN,82119,San Lorenzo,Departamento San Lorenzo,82,0.0145030000000000,Santa Fe
Departamento,-32.7060840000000,-61.273388000000,IGN,82056,Iriondo,Departamento Iriondo,82,0.024663000000000,Santa Fe
Partido,-34.7056540000000,-58.3946970000000,IGN,6434,Lanús,Partido de Lanús,6,0.000160000000000000,Buenos Aires
Departamento,-31.6414650000000,-66.1458160000000,IGN,46091,General San Martín,Departamento General San Martín,46,0.0499890000000000,La Rioja
Departamento,-28.5432940000000,-67.1581350000000,IGN,46119,San Blas de Los Sauces,Departamento San Blas de Los Sauces,46,0.015567000000000,La Rioja
Departamento,-24.3466660000000,-65.4465030000000,IGN,38056,San Antonio,Departamento San Antonio,38,0.0131040000000000,Jujuy
Departamento,-22.621442000000,-66.5415630000000,IGN,38049,Rinconada,Departamento Rinconada,38,0.115256000000000,Jujuy
Departamento,-23.120377000000,-62.1378890000000,IGN,34063,Ramón Lista,Departamento Ramón Lista,34,0.050154000000000,Formosa
Departamento,-24.146977000000,-66.2072970000000,IGN,66091,La Poma,Departamento La Poma,66,0.025736000000000,Salta
Departamento,-42.4435910000000,-64.9333480000000,IGN,26007,Biedma,Departamento Biedma,26,0.0562440000000000,Chubut
Departamento,-27.5223370000000,-58.7624840000000,IGN,18021,Capital,Departamento Capital,18,0.00616200000000000,Corrientes
Departamento,-27.6020530000000,-58.2683510000000,IGN,18140,San Luis del Palmar,Departamento San Luis del Palmar,18,0.0286060000000000,Corrientes
Departamento,-25.9396350000000,-58.3773170000000,IGN,34014,Formosa,Departamento Formosa,34,0.086886000000000,Formosa
Departamento,-25.3700380000000,-58.0626060000000,IGN,34049,Pilcomayo,Departamento Pilcomayo,34,0.0711380000000000,Formosa
Departamento,-44.2001450000000,-70.5769490000000,IGN,26098,Tehuelches,Departamento Tehuelches,26,0.0655040000000000,Chubut
Departamento,-45.2828920000000,-67.7088650000000,IGN,26021,Escalante,Departamento Escalante,26,0.0652510000000000,Chubut
Departamento,-30.3985160000000,-64.609928000000,IGN,14049,Ischilín,Departamento Ischilín,14,0.030071000000000,Córdoba
Departamento,-30.7263440000000,-63.9844040000000,IGN,14168,Totoral,Departamento Totoral,14,0.0182480000000000,Córdoba
Departamento,-32.5143230000000,-63.2562060000000,IGN,14042,General San Martín,Departamento General San Martín,14,0.0304210000000000,Córdoba
Departamento,-32.0760870000000,-65.1422240000000,IGN,14133,San Javier,Departamento San Javier,14,0.00939900000000000,Córdoba
Departamento,-31.0315240000000,-63.436115000000,IGN,14105,Río Primero,Departamento Río Primero,14,0.0403790000000000,Córdoba
Departamento,-33.0308430000000,-62.2775950000000,IGN,14063,Marcos Juárez,Departamento Marcos Juárez,14,0.0563480000000000,Córdoba
Departamento,-27.1388900000000,-59.3467830000000,IGN,22056,General Donovan,Departamento General Donovan,22,0.0153220000000000,Chaco
Partido,-34.4985650000000,-61.6125870000000,IGN,6462,Leandro N. Alem,Partido de Leandro N. Alem,6,0.0051000000000000,Buenos Aires
Departamento,-26.3775450000000,-59.4877180000000,IGN,22084,Libertador General San Martín,Departamento Libertador General San Martín,22,0.0721210000000000,Chaco
Departamento,-42.7490300000000,-68.8023250000000,IGN,26049,Gastre,Departamento Gastre,26,0.0700380000000000,Chubut
Partido,-34.2379020000000,-61.2833810000000,IGN,6294,General Arenales,Partido de General Arenales,6,0.00470100000000000,Buenos Aires
Departamento,-26.9580420000000,-58.709116000000,IGN,22014,Bermejo,Departamento Bermejo,22,0.02575200000000,Chaco
Departamento,-32.2020590000000,-64.6151730000000,IGN,14007,Calamuchita,Departamento Calamuchita,14,0.0285410000000000,Córdoba
Departamento,-26.9180040000000,-64.9738640000000,IGN,90014,Cruz Alta,Departamento Cruz Alta,90,0.0534640000000000,Tucumán
Departamento,-26.8622350000000,-65.4310250000000,IGN,90063,Lules,Departamento Lules,90,0.0273000000000000,Tucumán
Departamento,-26.7839240000000,-65.3411740000000,IGN,90119,Yerba Buena,Departamento Yerba Buena,90,0.00659800000000000,Tucumán
Departamento,-26.6601490000000,-65.4640740000000,IGN,90105,Tafí Viejo,Departamento Tafí Viejo,90,0.051819000000000,Tucumán
Departamento,-32.5784190000000,-65.7095890000000,IGN,74063,Libertador General San Martín,Departamento Libertador General San Martín,74,0.045386000000000,San Luis
Departamento,-33.1068820000000,-65.9007900000000,IGN,74021,Coronel Pringles,Departamento Coronel Pringles,74,0.0506180000000000,San Luis
Departamento,-32.7270770000000,-65.198210000000,IGN,74028,Chacabuco,Departamento Chacabuco,74,0.0316070000000000,San Luis
Partido,-35.581057000000,-63.0947620000000,IGN,6679,Rivadavia,Partido de Rivadavia,6,0.0127390000000000,Buenos Aires
Partido,-40.1963830000000,-62.8508020000000,IGN,6602,Patagones,Partido de Patagones,6,0.0466030000000000,Buenos Aires
Departamento,-33.900715000000,-66.5024400000000,IGN,74056,Juan Martín de Pueyrredón,Departamento Juan Martín de Pueyrredón,74,0.179742000000000,San Luis
Departamento,-33.8922240000000,-65.5597750000000,IGN,74035,General Pedernera,Departamento General Pedernera,74,0.197048000000000,San Luis
Departamento,-26.3434120000000,-65.4058210000000,IGN,90112,Trancas,Departamento Trancas,90,0.132762000000000,Tucumán
Departamento,-26.5914690000000,-65.8893500000000,IGN,90098,Tafí del Valle,Departamento Tafí del Valle,90,0.108191000000000,Tucumán
Comuna,-34.6517890000000,-58.4991750000000,IGN,2063,Comuna 9,Comuna 9,2,0.0801220000000000,Ciudad Autónoma de Buenos Aires
Departamento,-32.2163020000000,-65.3948430000000,IGN,74049,Junín,Departamento Junín,74,0.0344270000000000,San Luis
Departamento,-29.6150490000000,-62.7386760000000,IGN,86112,Mitre,Departamento Mitre,86,0.0251780000000000,Santiago del Estero
Departamento,-28.6918180000000,-63.8815640000000,IGN,86021,Atamisqui,Departamento Atamisqui,86,0.0177770000000000,Santiago del Estero
Departamento,-27.4779700000000,-57.6113810000000,IGN,18014,Berón de Astrada,Departamento Berón de Astrada,18,0.00944400000000000,Corrientes
Departamento,-54.4245610000000,-67.5034850000000,IGN,94011,Tolhuin,Departamento Tolhuin,94,0.00157500000000000,"Tierra del Fuego, Antártida e Islas del Atlántico Sur"
Departamento,-27.5505260000000,-55.8565830000000,IGN,54028,Capital,Departamento Capital,54,0.0327040000000000,Misiones
Departamento,-27.4608500000000,-55.5826900000000,IGN,54021,Candelaria,Departamento Candelaria,54,0.0309000000000000,Misiones
Departamento,-26.8996080000000,-64.2724740000000,IGN,86091,Jiménez,Departamento Jiménez,86,0.0404010000000000,Santiago del Estero
Partido,-38.8490770000000,-61.8355840000000,IGN,6182,Coronel de Marina Leonardo Rosales,Partido de Coronel de Marina Leonardo Rosales,6,0.00433500000000000,Buenos Aires
Partido,-33.9319610000000,-59.4927870000000,IGN,6070,Baradero,Partido de Baradero,6,0.00483100000000000,Buenos Aires
Partido,-33.7809860000000,-59.7826260000000,IGN,6770,San Pedro,Partido de San Pedro,6,0.00430700000000000,Buenos Aires
Departamento,-22.3958920000000,-64.8955650000000,IGN,66161,Santa Victoria,Departamento Santa Victoria,66,0.0256940000000000,Salta
Departamento,-22.7144620000000,-63.6582860000000,IGN,66056,General José de San Martín,Departamento General José de San Martín,66,0.102450000000000,Salta
Departamento,-23.5194720000000,-62.8285940000000,IGN,66133,Rivadavia,Departamento Rivadavia,66,0.167676000000000,Salta
Departamento,-24.5457520000000,-65.8530080000000,IGN,66147,Rosario de Lerma,Departamento Rosario de Lerma,66,0.0331180000000000,Salta
Departamento,-23.7854860000000,-64.8288750000000,IGN,38035,Ledesma,Departamento Ledesma,38,0.0561890000000000,Jujuy
Departamento,-23.0820100000000,-65.4095230000000,IGN,38028,Humahuaca,Departamento Humahuaca,38,0.0662010000000000,Jujuy
Departamento,-22.9392130000000,-65.9347260000000,IGN,38007,Cochinoca,Departamento Cochinoca,38,0.134624000000000,Jujuy
Departamento,-23.7434750000000,-65.6961900000000,IGN,38098,Tumbaya,Departamento Tumbaya,38,0.0620760000000000,Jujuy
Partido,-34.8741060000000,-62.4017160000000,IGN,6277,Florentino Ameghino,Partido de Florentino Ameghino,6,0.00578900000000000,Buenos Aires
Departamento,-44.4231370000000,-66.1302640000000,IGN,26028,Florentino Ameghino,Departamento Florentino Ameghino,26,0.0714450000000000,Chubut
Departamento,-27.7940600000000,-65.5977880000000,IGN,90049,La Cocha,Departamento La Cocha,90,0.0427750000000000,Tucumán
Departamento,-27.7132780000000,-65.2550360000000,IGN,90035,Graneros,Departamento Graneros,90,0.0753680000000000,Tucumán
Departamento,-27.6060760000000,-65.7831910000000,IGN,90042,Juan Bautista Alberdi,Departamento Juan Bautista Alberdi,90,0.0328360000000000,Tucumán
Departamento,-27.4501200000000,-65.7518270000000,IGN,90077,Río Chico,Departamento Río Chico,90,0.0272150000000000,Tucumán
Departamento,-27.4238370000000,-65.2924850000000,IGN,90091,Simoca,Departamento Simoca,90,0.0594690000000000,Tucumán
Departamento,-27.2696020000000,-65.8110640000000,IGN,90021,Chicligasta,Departamento Chicligasta,90,0.0573710000000000,Tucumán
Departamento,-27.1106200000000,-65.6430770000000,IGN,90070,Monteros,Departamento Monteros,90,0.052779000000000,Tucumán
Departamento,-27.1918830000000,-65.0848650000000,IGN,90056,Leales,Departamento Leales,90,0.0875080000000000,Tucumán
Departamento,-32.0122710000000,-61.8090740000000,IGN,82126,San Martín,Departamento San Martín,82,0.0375590000000000,Santa Fe
Departamento,-31.4753560000000,-60.6694790000000,IGN,82063,La Capital,Departamento La Capital,82,0.0225020000000000,Santa Fe
Departamento,-25.9784320000000,-53.9638550000000,IGN,54049,General Manuel Belgrano,Departamento General Manuel Belgrano,54,0.0992540000000000,Misiones
Departamento,-27.0262350000000,-54.2693650000000,IGN,54056,Guaraní,Departamento Guaraní,54,0.109728000000000,Misiones
Departamento,-25.8747350000000,-54.4004190000000,IGN,54063,Iguazú,Departamento Iguazú,54,0.0908750000000000,Misiones
Departamento,-27.3786140000000,-54.6340900000000,IGN,54119,25 de Mayo,Departamento 25 de Mayo,54,0.0555200000000000,Misiones
Departamento,-27.4763640000000,-55.0712220000000,IGN,54091,Oberá,Departamento Oberá,54,0.052827000000000,Misiones
Departamento,-31.2314620000000,-61.6572580000000,IGN,82021,Castellanos,Departamento Castellanos,82,0.0507300000000000,Santa Fe
Departamento,-31.0546410000000,-60.1258080000000,IGN,82035,Garay,Departamento Garay,82,0.0305410000000000,Santa Fe
Departamento,-36.1306410000000,-63.6637300000000,IGN,42119,Quemú Quemú,Departamento Quemú Quemú,42,0.0172780000000000,La Pampa
Departamento,-27.1765940000000,-55.3392900000000,IGN,54098,San Ignacio,Departamento San Ignacio,54,0.0559890000000000,Misiones
Departamento,-37.3338790000000,-65.082832000000,IGN,42154,Utracán,Departamento Utracán,42,0.0901670000000000,La Pampa
Departamento,-28.8289800000000,-56.9315840000000,IGN,18147,San Martín,Departamento San Martín,18,0.07468100000000,Corrientes
Departamento,-29.5936360000000,-57.2996340000000,IGN,18119,Paso de los Libres,Departamento Paso de los Libres,18,0.0553300000000000,Corrientes
Departamento,-29.4514540000000,-59.2559120000000,IGN,18070,Goya,Departamento Goya,18,0.0540240000000000,Corrientes
Departamento,-28.9879900000000,-58.9337230000000,IGN,18091,Lavalle,Departamento Lavalle,18,0.0167860000000000,Corrientes
Departamento,-28.705807000000,-58.6130360000000,IGN,18161,San Roque,Departamento San Roque,18,0.0272220000000000,Corrientes
Departamento,-28.775163000000,-56.5115300000000,IGN,18056,General Alvear,Departamento General Alvear,18,0.0218600000000000,Corrientes
Departamento,-28.4084000000000,-58.0313930000000,IGN,18028,Concepción,Departamento Concepción,18,0.0590530000000000,Corrientes
Departamento,-28.4973870000000,-58.9304350000000,IGN,18007,Bella Vista,Departamento Bella Vista,18,0.0198920000000000,Corrientes
Departamento,-28.2311040000000,-56.2221770000000,IGN,18168,Santo Tomé,Departamento Santo Tomé,18,0.0782090000000000,Corrientes
Departamento,-28.2124690000000,-58.6199130000000,IGN,18126,Saladas,Departamento Saladas,18,0.0214240000000000,Corrientes
Departamento,-27.7199320000000,-57.7876330000000,IGN,18063,General Paz,Departamento General Paz,18,0.0289940000000000,Corrientes
Departamento,-27.6306650000000,-55.3880680000000,IGN,54070,Leandro N. Alem,Departamento Leandro N. Alem,54,0.0359710000000000,Misiones
Departamento,-27.7771030000000,-55.1674600000000,IGN,54105,San Javier,Departamento San Javier,54,0.0218540000000000,Misiones
Departamento,-28.0163840000000,-58.1855640000000,IGN,18098,Mburucuyá,Departamento Mburucuyá,18,0.0111250000000000,Corrientes
Departamento,-27.9311670000000,-55.4670360000000,IGN,54035,Concepción,Departamento Concepción,54,0.0262340000000000,Misiones
Departamento,-27.8887540000000,-55.6781130000000,IGN,54007,Apóstoles,Departamento Apóstoles,54,0.0349760000000000,Misiones
Departamento,-27.1678040000000,-58.9587420000000,IGN,22126,1° de Mayo,Departamento 1° de Mayo,22,0.0129440000000000,Chaco
Departamento,-27.7156980000000,-59.1154440000000,IGN,22140,San Fernando,Departamento San Fernando,22,0.0360590000000000,Chaco
Departamento,-27.3933730000000,-60.3637300000000,IGN,22147,San Lorenzo,Departamento San Lorenzo,22,0.0217190000000000,Chaco
Partido,-34.7549680000000,-58.4240950000000,IGN,6490,Lomas de Zamora,Partido de Lomas de Zamora,6,0.00028300000000000,Buenos Aires
Partido,-34.6781990000000,-58.3411450000000,IGN,6035,Avellaneda,Partido de Avellaneda,6,0.00017900000000000,Buenos Aires
Departamento,-26.8170410000000,-60.0184590000000,IGN,22168,25 de Mayo,Departamento 25 de Mayo,22,0.0238950000000000,Chaco
Departamento,-26.8478160000000,-61.0713340000000,IGN,22049,General Belgrano,Departamento General Belgrano,22,0.0130950000000000,Chaco
Departamento,-27.3493250000000,-59.2597880000000,IGN,22077,Libertad,Departamento Libertad,22,0.0105140000000000,Chaco
Departamento,-26.7853900000000,-60.4612870000000,IGN,22021,Comandante Fernández,Departamento Comandante Fernández,22,0.0151140000000000,Chaco
Comuna,-34.5918840000000,-58.4627740000000,IGN,2105,Comuna 15,Comuna 15,2,0.0696350000000000,Ciudad Autónoma de Buenos Aires
Departamento,-31.4874200000000,-68.5239290000000,IGN,70042,Chimbas,Departamento Chimbas,70,0.000762000000000000,San Juan
Departamento,-31.5330750000000,-68.5342860000000,IGN,70028,Capital,Departamento Capital,70,0.000304000000000000,San Juan
Departamento,-31.5542330000000,-68.6416230000000,IGN,70084,Rivadavia,Departamento Rivadavia,70,0.00137200000000000,San Juan
Departamento,-31.6454180000000,-68.3891600000000,IGN,70063,9 de Julio,Departamento 9 de Julio,70,0.0017520000000000,San Juan
Departamento,-31.209736000000,-68.4521790000000,IGN,70007,Albardón,Departamento Albardón,70,0.0115160000000000,San Juan
Departamento,-31.1922720000000,-68.1320480000000,IGN,70014,Angaco,Departamento Angaco,70,0.0290120000000000,San Juan
Departamento,-31.5327200000000,-68.4634100000000,IGN,70098,Santa Lucía,Departamento Santa Lucía,70,0.0006170000000000,San Juan
Departamento,-31.6866320000000,-68.4675950000000,IGN,70077,Rawson,Departamento Rawson,70,0.00326000000000000,San Juan
Departamento,-31.9898920000000,-67.8268030000000,IGN,70126,25 de Mayo,Departamento 25 de Mayo,70,0.0481830000000000,San Juan
Departamento,-31.5285460000000,-68.2072670000000,IGN,70091,San Martín,Departamento San Martín,70,0.00627900000000000,San Juan
Departamento,-31.7472540000000,-68.5846800000000,IGN,70070,Pocito,Departamento Pocito,70,0.00655300000000000,San Juan
Departamento,-31.6417780000000,-68.9548420000000,IGN,70133,Zonda,Departamento Zonda,70,0.0275910000000000,San Juan
Departamento,-31.0852850000000,-68.8823910000000,IGN,70112,Ullum,Departamento Ullum,70,0.0507860000000000,San Juan
Departamento,-32.076117000000,-68.6870410000000,IGN,70105,Sarmiento,Departamento Sarmiento,70,0.0324420000000000,San Juan
Departamento,-31.4509360000000,-69.8318660000000,IGN,70021,Calingasta,Departamento Calingasta,70,0.258397000000000,San Juan
Departamento,-29.6011910000000,-69.4387200000000,IGN,70049,Iglesia,Departamento Iglesia,70,0.214010000000000,San Juan
Departamento,-30.3546410000000,-68.4399970000000,IGN,70056,Jáchal,Departamento Jáchal,70,0.161407000000000,San Juan
Departamento,-30.7168860000000,-67.5276740000000,IGN,70119,Valle Fértil,Departamento Valle Fértil,70,0.0595750000000000,San Juan
Departamento,-31.5069000000000,-67.5454410000000,IGN,70035,Caucete,Departamento Caucete,70,0.0861830000000000,San Juan
Partido,-35.0038470000000,-58.0177780000000,IGN,6441,La Plata,Partido de La Plata,6,0.00285500000000000,Buenos Aires
Departamento,-29.0645070000000,-57.8183860000000,IGN,18105,Mercedes,Departamento Mercedes,18,0.109625000000000,Corrientes
Departamento,-53.7462920000000,-68.1361050000000,IGN,94014,Ushuaia,Departamento Ushuaia,94,0.00158000000000000,"Tierra del Fuego, Antártida e Islas del Atlántico Sur"
Departamento,-37.0324940000000,-63.7788850000000,IGN,42001,Centro (Santa Rosa),Departamento Centro ,42,0.0244440000000000,La Pampa
Departamento,-37.0324940000000,-63.7788850000000,IGN,42002,Norte (General Pico),Departamento Centro ,42,0.0244440000000000,La Pampa
Departamento,-37.0324940000000,-63.7788850000000,IGN,42003,Centro (Santa Rosa),Departamento Centro ,42,0.0244440000000000,La Pampa
Departamento,-37.0324940000000,-63.7788850000000,IGN,42004,Centro (Santa Rosa),Departamento Centro ,42,0.0244440000000000,La Pampa
